

[{"id":"1","mall_id":"0","name":"South Gate Garfield","mall_no":"1","address":"5702 E. Firestone Blvd.","city":"South Gate","state":"CA","country_id":"236","zip":"90280","phone_no":"(562) 927-7901","latitude":"33.947906","longitude":"-118.166585","banner_path":null,"isdeleted":"N","isblocked":"N","timezone":"PDT","monday_start":"08:00:00","monday_end":"23:00:00","tuesday_start":"08:00:00","tuesday_end":"23:00:00","wednesday_start":"08:00:00","wednesday_end":"23:00:00","thursday_start":"08:00:00","thursday_end":"23:00:00","friday_start":"08:00:00","friday_end":"23:00:00","saturday_start":"08:00:00","saturday_end":"23:00:00","sunday_start":"08:00:00","sunday_end":"23:00:00","user_id":null,"map":null,"is_holiday":"N","holiday_start_date":null,"holiday_end_date":null,"holiday_start_time":null,"holiday_end_time":null,"zone_id":"2","ad_link":"https:\/\/www.qgdigitalpublishing.com\/publication?m=40534&l=1","is_ncr":"1","region_id":null,"message":""}, {"id":"2","mall_id":"0","name":"Panorama City","mall_no":"2","address":"14620 Parthenia St.","city":"Panorama City","state":"CA","country_id":"0","zip":"91402","phone_no":"(818) 830-5725","latitude":"34.226222","longitude":"-118.450835","banner_path":null,"isdeleted":"N","isblocked":"N","timezone":"PDT","monday_start":"08:00:00","monday_end":"23:00:00","tuesday_start":"08:00:00","tuesday_end":"23:00:00","wednesday_start":"08:00:00","wednesday_end":"23:00:00","thursday_start":"08:00:00","thursday_end":"23:00:00","friday_start":"08:00:00","friday_end":"23:00:00","saturday_start":"08:00:00","saturday_end":"23:00:00","sunday_start":"08:00:00","sunday_end":"23:00:00","user_id":null,"map":null,"is_holiday":"N","holiday_start_date":null,"holiday_end_date":null,"holiday_start_time":null,"holiday_end_time":null,"zone_id":"2","ad_link":"https:\/\/www.qgdigitalpublishing.com\/publication?m=40534&l=1","is_ncr":"1","region_id":null,"message":""}, {"id":"3","mall_id":"0","name":"Commerce","mall_no":"3","address":"5646 E. Whittier Blvd.","city":"Commerce","state":"CA","country_id":"236","zip":"90022","phone_no":"(323) 720-5061","latitude":"34.017548","longitude":"-118.149114","banner_path":null,"isdeleted":"N","isblocked":"N","timezone":"PDT","monday_start":"08:00:00","monday_end":"23:00:00","tuesday_start":"08:00:00","tuesday_end":"23:00:00","wednesday_start":"08:00:00","wednesday_end":"23:00:00","thursday_start":"08:00:00","thursday_end":"23:00:00","friday_start":"08:00:00","friday_end":"23:00:00","saturday_start":"08:00:00","saturday_end":"23:00:00","sunday_start":"08:00:00","sunday_end":"23:00:00","user_id":null,"map":null,"is_holiday":"N","holiday_start_date":null,"holiday_end_date":null,"holiday_start_time":null,"holiday_end_time":null,"zone_id":"2","ad_link":"https:\/\/www.qgdigitalpublishing.com\/publication?m=40535&l=1","is_ncr":"1","region_id":null,"message":""}, {"id":"4","mall_id":"0","name":"Cesar","mall_no":"4","address":"3405 E. Cesar E Chavez Ave.","city":"East LA","state":"CA","country_id":"0","zip":"90063","phone_no":"(323) 526-0120","latitude":"34.041527","longitude":"-118.19193","banner_path":null,"isdeleted":"N","isblocked":"N","timezone":"PDT","monday_start":"08:00:00","monday_end":"23:00:00","tuesday_start":"08:00:00","tuesday_end":"23:00:00","wednesday_start":"08:00:00","wednesday_end":"23:00:00","thursday_start":"08:00:00","thursday_end":"23:00:00","friday_start":"08:00:00","friday_end":"23:00:00","saturday_start":"08:00:00","saturday_end":"23:00:00","sunday_start":"08:00:00","sunday_end":"23:00:00","user_id":null,"map":null,"is_holiday":"N","holiday_start_date":null,"holiday_end_date":null,"holiday_start_time":null,"holiday_end_time":null,"zone_id":"2","ad_link":"https:\/\/www.qgdigitalpublishing.com\/publication?m=40534&l=1","is_ncr":"1","region_id":null,"message":""}, {"id":"5","mall_id":"0","name":"No. Hollywood","mall_no":"5","address":"12727 Sherman Way","city":"North Hollywood","state":"CA","country_id":"0","zip":"91605","phone_no":"(818) 255-4999","latitude":"34.202547","longitude":"-118.410487","banner_path":null,"isdeleted":"N","isblocked":"N","timezone":"PDT","monday_start":"08:00:00","monday_end":"23:00:00","tuesday_start":"08:00:00","tuesday_end":"23:00:00","wednesday_start":"08:00:00","wednesday_end":"23:00:00","thursday_start":"08:00:00","thursday_end":"23:00:00","friday_start":"08:00:00","friday_end":"23:00:00","saturday_start":"08:00:00","saturday_end":"23:00:00","sunday_start":"08:00:00","sunday_end":"23:00:00","user_id":null,"map":null,"is_holiday":"N","holiday_start_date":null,"holiday_end_date":null,"holiday_start_time":null,"holiday_end_time":null,"zone_id":"2","ad_link":"https:\/\/www.qgdigitalpublishing.com\/publication?m=40534&l=1","is_ncr":"1","region_id":null,"message":""}, {"id":"6","mall_id":"0","name":"Santa Ana McFadden","mall_no":"6","address":"3700 W. McFadden Ave.","city":"Santa Ana","state":"CA","country_id":"0","zip":"92704","phone_no":"(714) 775-9256","latitude":"33.737","longitude":"-117.917467","banner_path":null,"isdeleted":"N","isblocked":"N","timezone":"PDT","monday_start":"08:00:00","monday_end":"23:00:00","tuesday_start":"08:00:00","tuesday_end":"23:00:00","wednesday_start":"08:00:00","wednesday_end":"23:00:00","thursday_start":"08:00:00","thursday_end":"23:00:00","friday_start":"08:00:00","friday_end":"23:00:00","saturday_start":"08:00:00","saturday_end":"23:00:00","sunday_start":"08:00:00","sunday_end":"23:00:00","user_id":null,"map":null,"is_holiday":"N","holiday_start_date":null,"holiday_end_date":null,"holiday_start_time":null,"holiday_end_time":null,"zone_id":"3","ad_link":"https:\/\/www.qgdigitalpublishing.com\/publication?m=40537&l=1","is_ncr":"1","region_id":null,"message":""}, {"id":"7","mall_id":"0","name":"Huntington Park","mall_no":"7","address":"7000 S. Alameda St.","city":"Huntington Park","state":"CA","country_id":"0","zip":"90255","phone_no":"(323) 983-7777","latitude":"33.975785","longitude":"-118.234925","banner_path":null,"isdeleted":"N","isblocked":"N","timezone":"PDT","monday_start":"08:00:00","monday_end":"23:00:00","tuesday_start":"08:00:00","tuesday_end":"23:00:00","wednesday_start":"08:00:00","wednesday_end":"23:00:00","thursday_start":"08:00:00","thursday_end":"23:00:00","friday_start":"08:00:00","friday_end":"23:00:00","saturday_start":"08:00:00","saturday_end":"23:00:00","sunday_start":"08:00:00","sunday_end":"23:00:00","user_id":null,"map":null,"is_holiday":"N","holiday_start_date":null,"holiday_end_date":null,"holiday_start_time":null,"holiday_end_time":null,"zone_id":"2","ad_link":"https:\/\/www.qgdigitalpublishing.com\/publication?m=40534&l=1","is_ncr":"1","region_id":null,"message":""}, {"id":"8","mall_id":"0","name":"Phx 51st","mall_no":"8","address":"5127 W. Indian School Rd.","city":"Phoenix","state":"AZ","country_id":"236","zip":"85031","phone_no":"(602) 393-6888","latitude":"33.493525","longitude":"-112.171164","banner_path":null,"isdeleted":"N","isblocked":"N","timezone":"UTC","monday_start":"07:00:00","monday_end":"23:00:00","tuesday_start":"07:00:00","tuesday_end":"23:00:00","wednesday_start":"07:00:00","wednesday_end":"23:00:00","thursday_start":"07:00:00","thursday_end":"23:00:00","friday_start":"07:00:00","friday_end":"23:00:00","saturday_start":"07:00:00","saturday_end":"23:00:00","sunday_start":"07:00:00","sunday_end":"23:00:00","user_id":null,"map":null,"is_holiday":"N","holiday_start_date":null,"holiday_end_date":null,"holiday_start_time":null,"holiday_end_time":null,"zone_id":"4","ad_link":"https:\/\/www.qgdigitalpublishing.com\/publication?m=40533&l=1","is_ncr":"1","region_id":null,"message":""}, {"id":"9","mall_id":"0","name":"Pomona","mall_no":"9","address":"1575 E Holt Ave","city":"Pomona","state":"CA","country_id":"0","zip":"91767","phone_no":"9094614179","latitude":"34.064154","longitude":"-117.719805","banner_path":null,"isdeleted":"N","isblocked":"N","timezone":"PDT","monday_start":"08:00:00","monday_end":"23:00:00","tuesday_start":"08:00:00","tuesday_end":"23:00:00","wednesday_start":"08:00:00","wednesday_end":"23:00:00","thursday_start":"08:00:00","thursday_end":"23:00:00","friday_start":"08:00:00","friday_end":"23:00:00","saturday_start":"08:00:00","saturday_end":"23:00:00","sunday_start":"08:00:00","sunday_end":"23:00:00","user_id":null,"map":null,"is_holiday":"N","holiday_start_date":null,"holiday_end_date":null,"holiday_start_time":null,"holiday_end_time":null,"zone_id":"2","ad_link":"https:\/\/www.qgdigitalpublishing.com\/publication?m=40537&l=1","is_ncr":"1","region_id":null,"message":""}, {"id":"10","mall_id":"0","name":"Tucson","mall_no":"10","address":"3372 S 6th Ave","city":"Tucson","state":"AZ","country_id":"236","zip":"85713","phone_no":"5203007610","latitude":"32.185564","longitude":"-110.969518","banner_path":null,"isdeleted":"N","isblocked":"N","timezone":"UTC","monday_start":"07:00:00","monday_end":"23:00:00","tuesday_start":"07:00:00","tuesday_end":"23:00:00","wednesday_start":"07:00:00","wednesday_end":"23:00:00","thursday_start":"07:00:00","thursday_end":"23:00:00","friday_start":"07:00:00","friday_end":"23:00:00","saturday_start":"07:00:00","saturday_end":"23:00:00","sunday_start":"07:00:00","sunday_end":"23:00:00","user_id":null,"map":null,"is_holiday":"N","holiday_start_date":null,"holiday_end_date":null,"holiday_start_time":null,"holiday_end_time":null,"zone_id":"5","ad_link":"https:\/\/www.qgdigitalpublishing.com\/publication?m=40533&l=1","is_ncr":"1","region_id":null,"message":""}, {"id":"11","mall_id":"0","name":"Anaheim","mall_no":"11","address":"650 N Euclid St","city":"Anaheim","state":"CA","country_id":"0","zip":"92801","phone_no":"(714) 533-3761","latitude":"33.840889","longitude":"-117.940192","banner_path":null,"isdeleted":"N","isblocked":"N","timezone":"PDT","monday_start":"08:00:00","monday_end":"23:00:00","tuesday_start":"08:00:00","tuesday_end":"23:00:00","wednesday_start":"08:00:00","wednesday_end":"23:00:00","thursday_start":"08:00:00","thursday_end":"23:00:00","friday_start":"08:00:00","friday_end":"23:00:00","saturday_start":"08:00:00","saturday_end":"23:00:00","sunday_start":"08:00:00","sunday_end":"23:00:00","user_id":null,"map":null,"is_holiday":"N","holiday_start_date":null,"holiday_end_date":null,"holiday_start_time":null,"holiday_end_time":null,"zone_id":"3","ad_link":"https:\/\/www.qgdigitalpublishing.com\/publication?m=40534&l=1","is_ncr":"1","region_id":null,"message":""}, {"id":"12","mall_id":"0","name":"Arleta","mall_no":"12","address":"9710 Woodman Ave.","city":"Arleta","state":"CA","country_id":"0","zip":"91331","phone_no":"8188341810","latitude":"34.247656","longitude":"-118.446059","banner_path":null,"isdeleted":"N","isblocked":"N","timezone":"PDT","monday_start":"08:00:00","monday_end":"23:00:00","tuesday_start":"08:00:00","tuesday_end":"23:00:00","wednesday_start":"08:00:00","wednesday_end":"23:00:00","thursday_start":"08:00:00","thursday_end":"23:00:00","friday_start":"08:00:00","friday_end":"23:00:00","saturday_start":"08:00:00","saturday_end":"23:00:00","sunday_start":"08:00:00","sunday_end":"23:00:00","user_id":null,"map":null,"is_holiday":"N","holiday_start_date":null,"holiday_end_date":null,"holiday_start_time":null,"holiday_end_time":null,"zone_id":"2","ad_link":"https:\/\/www.qgdigitalpublishing.com\/publication?m=40535&l=1","is_ncr":"1","region_id":null,"message":""}, {"id":"13","mall_id":"0","name":"Gage","mall_no":"13","address":"1301 E Gage Ave","city":"Los Angeles","state":"CA","country_id":"0","zip":"90001","phone_no":"3235840432","latitude":"33.982526","longitude":"-118.251573","banner_path":null,"isdeleted":"N","isblocked":"N","timezone":"PDT","monday_start":"08:00:00","monday_end":"23:00:00","tuesday_start":"08:00:00","tuesday_end":"23:00:00","wednesday_start":"08:00:00","wednesday_end":"23:00:00","thursday_start":"08:00:00","thursday_end":"23:00:00","friday_start":"08:00:00","friday_end":"23:00:00","saturday_start":"08:00:00","saturday_end":"23:00:00","sunday_start":"08:00:00","sunday_end":"23:00:00","user_id":null,"map":null,"is_holiday":"N","holiday_start_date":null,"holiday_end_date":null,"holiday_start_time":null,"holiday_end_time":null,"zone_id":"2","ad_link":"https:\/\/www.qgdigitalpublishing.com\/publication?m=40534&l=1","is_ncr":"1","region_id":null,"message":""}, {"id":"14","mall_id":"0","name":"Covina","mall_no":"14","address":"960 W. Arrow Hwy.","city":"Covina","state":"CA","country_id":"0","zip":"91722","phone_no":"6263344261","latitude":"34.105973","longitude":"-117.909287","banner_path":null,"isdeleted":"N","isblocked":"N","timezone":"PDT","monday_start":"08:00:00","monday_end":"23:00:00","tuesday_start":"08:00:00","tuesday_end":"23:00:00","wednesday_start":"08:00:00","wednesday_end":"23:00:00","thursday_start":"08:00:00","thursday_end":"23:00:00","friday_start":"08:00:00","friday_end":"23:00:00","saturday_start":"08:00:00","saturday_end":"23:00:00","sunday_start":"08:00:00","sunday_end":"23:00:00","user_id":null,"map":null,"is_holiday":"N","holiday_start_date":null,"holiday_end_date":null,"holiday_start_time":null,"holiday_end_time":null,"zone_id":"2","ad_link":"https:\/\/www.qgdigitalpublishing.com\/publication?m=40534&l=1","is_ncr":"1","region_id":null,"message":""}, {"id":"15","mall_id":"0","name":"Inglewood","mall_no":"15","address":"3321 Century Blvd","city":"Inglewood","state":"CA","country_id":"0","zip":"90303","phone_no":"3106723210","latitude":"33.94671","longitude":"-118.329964","banner_path":null,"isdeleted":"N","isblocked":"N","timezone":"PDT","monday_start":"08:00:00","monday_end":"23:00:00","tuesday_start":"08:00:00","tuesday_end":"23:00:00","wednesday_start":"08:00:00","wednesday_end":"23:00:00","thursday_start":"08:00:00","thursday_end":"23:00:00","friday_start":"08:00:00","friday_end":"23:00:00","saturday_start":"08:00:00","saturday_end":"23:00:00","sunday_start":"08:00:00","sunday_end":"23:00:00","user_id":null,"map":null,"is_holiday":"N","holiday_start_date":null,"holiday_end_date":null,"holiday_start_time":null,"holiday_end_time":null,"zone_id":"2","ad_link":"https:\/\/www.qgdigitalpublishing.com\/publication?m=40534&l=1","is_ncr":"1","region_id":null,"message":""}, {"id":"16","mall_id":"0","name":"Santa Fe Springs","mall_no":"16","address":"10531 S. Carmenita Rd","city":"Santa Fe Springs","state":"CA","country_id":"0","zip":"90670","phone_no":"5629415811","latitude":"33.939248","longitude":"-118.048439","banner_path":null,"isdeleted":"N","isblocked":"N","timezone":"PDT","monday_start":"08:00:00","monday_end":"23:00:00","tuesday_start":"08:00:00","tuesday_end":"23:00:00","wednesday_start":"08:00:00","wednesday_end":"23:00:00","thursday_start":"08:00:00","thursday_end":"23:00:00","friday_start":"08:00:00","friday_end":"23:00:00","saturday_start":"08:00:00","saturday_end":"23:00:00","sunday_start":"08:00:00","sunday_end":"23:00:00","user_id":null,"map":null,"is_holiday":"N","holiday_start_date":null,"holiday_end_date":null,"holiday_start_time":null,"holiday_end_time":null,"zone_id":"2","ad_link":"https:\/\/www.qgdigitalpublishing.com\/publication?m=40534&l=1","is_ncr":"1","region_id":null,"message":""}, {"id":"17","mall_id":"0","name":"Slauson","mall_no":"17","address":"1100 W Slauson Ave","city":"Los Angeles","state":"CA","country_id":"0","zip":"90044","phone_no":"3235654005","latitude":"33.988753","longitude":"-118.293485","banner_path":null,"isdeleted":"N","isblocked":"N","timezone":"PDT","monday_start":"08:00:00","monday_end":"23:00:00","tuesday_start":"08:00:00","tuesday_end":"23:00:00","wednesday_start":"08:00:00","wednesday_end":"23:00:00","thursday_start":"08:00:00","thursday_end":"23:00:00","friday_start":"08:00:00","friday_end":"23:00:00","saturday_start":"08:00:00","saturday_end":"23:00:00","sunday_start":"08:00:00","sunday_end":"23:00:00","user_id":null,"map":null,"is_holiday":"N","holiday_start_date":null,"holiday_end_date":null,"holiday_start_time":null,"holiday_end_time":null,"zone_id":"2","ad_link":"https:\/\/www.qgdigitalpublishing.com\/publication?m=40535&l=1","is_ncr":"1","region_id":null,"message":""}, {"id":"18","mall_id":"0","name":"Highland Park","mall_no":"18","address":"5610 York Blvd","city":"Highland Park","state":"CA","country_id":"0","zip":"90042","phone_no":"3239168218","latitude":"34.119012","longitude":"-118.196312","banner_path":null,"isdeleted":"N","isblocked":"N","timezone":"PDT","monday_start":"08:00:00","monday_end":"23:00:00","tuesday_start":"08:00:00","tuesday_end":"23:00:00","wednesday_start":"08:00:00","wednesday_end":"23:00:00","thursday_start":"08:00:00","thursday_end":"23:00:00","friday_start":"08:00:00","friday_end":"23:00:00","saturday_start":"08:00:00","saturday_end":"23:00:00","sunday_start":"08:00:00","sunday_end":"23:00:00","user_id":null,"map":null,"is_holiday":"N","holiday_start_date":null,"holiday_end_date":null,"holiday_start_time":null,"holiday_end_time":null,"zone_id":"2","ad_link":"https:\/\/www.qgdigitalpublishing.com\/publication?m=40537&l=1","is_ncr":"1","region_id":null,"message":""}, {"id":"19","mall_id":"0","name":"Phx 75th","mall_no":"19","address":"7502 W. Thomas Rd","city":"Phoenix","state":"AZ","country_id":"236","zip":"85033","phone_no":"6232075119","latitude":"33.481561","longitude":"-112.221623","banner_path":null,"isdeleted":"N","isblocked":"N","timezone":"MST","monday_start":"07:00:00","monday_end":"23:00:00","tuesday_start":"07:00:00","tuesday_end":"23:00:00","wednesday_start":"07:00:00","wednesday_end":"23:00:00","thursday_start":"07:00:00","thursday_end":"23:00:00","friday_start":"07:00:00","friday_end":"23:00:00","saturday_start":"07:00:00","saturday_end":"23:00:00","sunday_start":"07:00:00","sunday_end":"23:00:00","user_id":null,"map":null,"is_holiday":"N","holiday_start_date":null,"holiday_end_date":null,"holiday_start_time":null,"holiday_end_time":null,"zone_id":"4","ad_link":"https:\/\/www.qgdigitalpublishing.com\/publication?m=40533&l=1","is_ncr":"1","region_id":null,"message":""}, {"id":"20","mall_id":"0","name":"LV Lamb","mall_no":"20","address":"1255 S. Lamb Blvd.","city":"Las Vegas","state":"NV","country_id":"0","zip":"89104","phone_no":"7029405920","latitude":"36.157888","longitude":"-115.082109","banner_path":null,"isdeleted":"N","isblocked":"N","timezone":"PDT","monday_start":"08:00:00","monday_end":"23:00:00","tuesday_start":"08:00:00","tuesday_end":"23:00:00","wednesday_start":"08:00:00","wednesday_end":"23:00:00","thursday_start":"08:00:00","thursday_end":"23:00:00","friday_start":"08:00:00","friday_end":"23:00:00","saturday_start":"08:00:00","saturday_end":"23:00:00","sunday_start":"08:00:00","sunday_end":"23:00:00","user_id":null,"map":null,"is_holiday":"N","holiday_start_date":null,"holiday_end_date":null,"holiday_start_time":null,"holiday_end_time":null,"zone_id":"6","ad_link":"https:\/\/www.qgdigitalpublishing.com\/publication?m=40540&l=1","is_ncr":"1","region_id":null,"message":""}, {"id":"21","mall_id":"0","name":"Paramount","mall_no":"21","address":"14601 Lakewood Blvd","city":"Paramount","state":"CA","country_id":"236","zip":"90723","phone_no":"(562)748-0221","latitude":"33.900731","longitude":"-118.145274","banner_path":"croppedImg_187387924.jpeg","isdeleted":"N","isblocked":"N","timezone":"PDT","monday_start":"08:00:00","monday_end":"23:00:00","tuesday_start":"08:00:00","tuesday_end":"23:00:00","wednesday_start":"08:00:00","wednesday_end":"23:00:00","thursday_start":"08:00:00","thursday_end":"23:00:00","friday_start":"08:00:00","friday_end":"23:00:00","saturday_start":"08:00:00","saturday_end":"23:00:00","sunday_start":"08:00:00","sunday_end":"23:00:00","user_id":null,"map":null,"is_holiday":"N","holiday_start_date":null,"holiday_end_date":null,"holiday_start_time":null,"holiday_end_time":null,"zone_id":"2","ad_link":"https:\/\/www.qgdigitalpublishing.com\/publication?m=40534&l=1","is_ncr":"1","region_id":null,"message":""}, {"id":"22","mall_id":"0","name":"Phx 32nd","mall_no":"22","address":"3130 E. Thomas Road","city":"Phoenix","state":"AZ","country_id":"236","zip":"85016","phone_no":"(602) 345-8222","latitude":"33.481747","longitude":"-112.014646","banner_path":null,"isdeleted":"N","isblocked":"N","timezone":"PDT","monday_start":"07:00:00","monday_end":"23:00:00","tuesday_start":"07:00:00","tuesday_end":"23:00:00","wednesday_start":"07:00:00","wednesday_end":"23:00:00","thursday_start":"07:00:00","thursday_end":"23:00:00","friday_start":"07:00:00","friday_end":"23:00:00","saturday_start":"07:00:00","saturday_end":"23:00:00","sunday_start":"07:00:00","sunday_end":"23:00:00","user_id":null,"map":null,"is_holiday":"N","holiday_start_date":null,"holiday_end_date":null,"holiday_start_time":null,"holiday_end_time":null,"zone_id":"4","ad_link":"https:\/\/www.qgdigitalpublishing.com\/publication?m=40533&l=1","is_ncr":"1","region_id":null,"message":""}, {"id":"23","mall_id":"0","name":"Santa Ana Bristol","mall_no":"23","address":"2445 South Bristol St","city":"Santa Ana","state":"CA","country_id":"0","zip":"92704","phone_no":"(714) 338-5023","latitude":"33.713967","longitude":"-117.884079","banner_path":null,"isdeleted":"N","isblocked":"N","timezone":"PDT","monday_start":"08:00:00","monday_end":"23:00:00","tuesday_start":"08:00:00","tuesday_end":"23:00:00","wednesday_start":"08:00:00","wednesday_end":"23:00:00","thursday_start":"08:00:00","thursday_end":"23:00:00","friday_start":"08:00:00","friday_end":"23:00:00","saturday_start":"08:00:00","saturday_end":"23:00:00","sunday_start":"08:00:00","sunday_end":"23:00:00","user_id":null,"map":null,"is_holiday":"N","holiday_start_date":null,"holiday_end_date":null,"holiday_start_time":null,"holiday_end_time":null,"zone_id":"3","ad_link":"https:\/\/www.qgdigitalpublishing.com\/publication?m=40537&l=1","is_ncr":"1","region_id":null,"message":""}, {"id":"24","mall_id":"0","name":"La Puente","mall_no":"24","address":"1285 N. Hacienda Blvd","city":"La Puente","state":"CA","country_id":"0","zip":"91744","phone_no":"(626) 869-5124","latitude":"34.044475","longitude":"-117.951134","banner_path":null,"isdeleted":"N","isblocked":"N","timezone":"PDT","monday_start":"08:00:00","monday_end":"23:00:00","tuesday_start":"08:00:00","tuesday_end":"23:00:00","wednesday_start":"08:00:00","wednesday_end":"23:00:00","thursday_start":"08:00:00","thursday_end":"23:00:00","friday_start":"08:00:00","friday_end":"23:00:00","saturday_start":"08:00:00","saturday_end":"23:00:00","sunday_start":"08:00:00","sunday_end":"23:00:00","user_id":null,"map":null,"is_holiday":"N","holiday_start_date":null,"holiday_end_date":null,"holiday_start_time":null,"holiday_end_time":null,"zone_id":"2","ad_link":"https:\/\/www.qgdigitalpublishing.com\/publication?m=40535&l=1","is_ncr":"1","region_id":null,"message":""}, {"id":"25","mall_id":"0","name":"National City","mall_no":"25","address":"3007 Highland Ave.","city":"National City","state":"CA","country_id":"0","zip":"91950","phone_no":"(619) 477-2525","latitude":"32.658819","longitude":"-117.088864","banner_path":null,"isdeleted":"N","isblocked":"N","timezone":"PDT","monday_start":"08:00:00","monday_end":"23:00:00","tuesday_start":"08:00:00","tuesday_end":"23:00:00","wednesday_start":"08:00:00","wednesday_end":"23:00:00","thursday_start":"08:00:00","thursday_end":"23:00:00","friday_start":"08:00:00","friday_end":"23:00:00","saturday_start":"08:00:00","saturday_end":"23:00:00","sunday_start":"08:00:00","sunday_end":"23:00:00","user_id":null,"map":null,"is_holiday":"N","holiday_start_date":null,"holiday_end_date":null,"holiday_start_time":null,"holiday_end_time":null,"zone_id":"7","ad_link":"https:\/\/www.qgdigitalpublishing.com\/publication?m=40543&l=1","is_ncr":"1","region_id":null,"message":""}, {"id":"26","mall_id":"0","name":"L V Lake Mead","mall_no":"26","address":"2021 E. Lake Mead","city":"Las Vegas","state":"NV","country_id":"0","zip":"89030","phone_no":"7029672600","latitude":"36.194541","longitude":"-115.119477","banner_path":null,"isdeleted":"N","isblocked":"N","timezone":"PDT","monday_start":"08:00:00","monday_end":"23:00:00","tuesday_start":"08:00:00","tuesday_end":"23:00:00","wednesday_start":"08:00:00","wednesday_end":"23:00:00","thursday_start":"08:00:00","thursday_end":"23:00:00","friday_start":"08:00:00","friday_end":"23:00:00","saturday_start":"08:00:00","saturday_end":"23:00:00","sunday_start":"08:00:00","sunday_end":"23:00:00","user_id":null,"map":null,"is_holiday":"N","holiday_start_date":null,"holiday_end_date":null,"holiday_start_time":null,"holiday_end_time":null,"zone_id":"6","ad_link":"https:\/\/www.qgdigitalpublishing.com\/publication?m=40540&l=1","is_ncr":"1","region_id":null,"message":""}, {"id":"27","mall_id":"0","name":"South Gate State","mall_no":"27","address":"3211 Firestone Blvd","city":"South Gate","state":"CA","country_id":"0","zip":"90280","phone_no":"(323) 973-4727","latitude":"33.956189","longitude":"-118.212807","banner_path":null,"isdeleted":"N","isblocked":"N","timezone":"PDT","monday_start":"08:00:00","monday_end":"23:00:00","tuesday_start":"08:00:00","tuesday_end":"23:00:00","wednesday_start":"08:00:00","wednesday_end":"23:00:00","thursday_start":"08:00:00","thursday_end":"23:00:00","friday_start":"08:00:00","friday_end":"23:00:00","saturday_start":"08:00:00","saturday_end":"23:00:00","sunday_start":"08:00:00","sunday_end":"23:00:00","user_id":null,"map":null,"is_holiday":"N","holiday_start_date":null,"holiday_end_date":null,"holiday_start_time":null,"holiday_end_time":null,"zone_id":"2","ad_link":"https:\/\/www.qgdigitalpublishing.com\/publication?m=40534&l=1","is_ncr":"1","region_id":null,"message":""}, {"id":"28","mall_id":"0","name":"Victorville","mall_no":"28","address":"14950 Bear Valley Road","city":"Victorville","state":"CA","country_id":"0","zip":"92395","phone_no":"(760) 524-9044","latitude":"34.471896","longitude":"-117.337656","banner_path":null,"isdeleted":"N","isblocked":"N","timezone":"PDT","monday_start":"08:00:00","monday_end":"23:00:00","tuesday_start":"08:00:00","tuesday_end":"23:00:00","wednesday_start":"08:00:00","wednesday_end":"23:00:00","thursday_start":"08:00:00","thursday_end":"23:00:00","friday_start":"08:00:00","friday_end":"23:00:00","saturday_start":"08:00:00","saturday_end":"23:00:00","sunday_start":"08:00:00","sunday_end":"23:00:00","user_id":null,"map":null,"is_holiday":"N","holiday_start_date":null,"holiday_end_date":null,"holiday_start_time":null,"holiday_end_time":null,"zone_id":"8","ad_link":"https:\/\/www.qgdigitalpublishing.com\/publication?m=40535&l=1","is_ncr":"1","region_id":null,"message":""}, {"id":"29","mall_id":"0","name":"Anaheim - Ball","mall_no":"30","address":"1221 South Anaheim Blvd","city":"Anaheim","state":"CA","country_id":"236","zip":"92805","phone_no":"(714) 518-5490","latitude":"33.816615","longitude":"-117.908583","banner_path":null,"isdeleted":"N","isblocked":"N","timezone":"PDT","monday_start":"07:00:00","monday_end":"23:00:00","tuesday_start":"07:00:00","tuesday_end":"23:00:00","wednesday_start":"07:00:00","wednesday_end":"23:00:00","thursday_start":"07:00:00","thursday_end":"23:00:00","friday_start":"07:00:00","friday_end":"23:00:00","saturday_start":"07:00:00","saturday_end":"23:00:00","sunday_start":"07:00:00","sunday_end":"23:00:00","user_id":null,"map":null,"is_holiday":"N","holiday_start_date":null,"holiday_end_date":null,"holiday_start_time":null,"holiday_end_time":null,"zone_id":"3","ad_link":"https:\/\/www.qgdigitalpublishing.com\/publication?m=40535&l=1","is_ncr":"1","region_id":null,"message":""}, {"id":"30","mall_id":"0","name":"Fontana - Foothill","mall_no":"31","address":"16950 Foothill Blvd","city":"Fontana","state":"CA","country_id":"0","zip":"92335","phone_no":"(909) 350-8691","latitude":"34.10813","longitude":"-117.434487","banner_path":null,"isdeleted":"N","isblocked":"N","timezone":"PDT","monday_start":"08:00:00","monday_end":"23:00:00","tuesday_start":"08:00:00","tuesday_end":"23:00:00","wednesday_start":"08:00:00","wednesday_end":"23:00:00","thursday_start":"08:00:00","thursday_end":"23:00:00","friday_start":"08:00:00","friday_end":"23:00:00","saturday_start":"08:00:00","saturday_end":"23:00:00","sunday_start":"08:00:00","sunday_end":"23:00:00","user_id":null,"map":null,"is_holiday":"N","holiday_start_date":null,"holiday_end_date":null,"holiday_start_time":null,"holiday_end_time":null,"zone_id":"8","ad_link":"https:\/\/www.qgdigitalpublishing.com\/publication?m=40535&l=1","is_ncr":"1","region_id":null,"message":""}, {"id":"31","mall_id":"0","name":"Fontana - Sierra","mall_no":"32","address":"9850 Sierra Ave","city":"Fontana","state":"CA","country_id":"0","zip":"92335","phone_no":"(909) 355-9002","latitude":"34.074621","longitude":"-117.437647","banner_path":null,"isdeleted":"N","isblocked":"N","timezone":"PDT","monday_start":"08:00:00","monday_end":"23:00:00","tuesday_start":"08:00:00","tuesday_end":"23:00:00","wednesday_start":"08:00:00","wednesday_end":"23:00:00","thursday_start":"08:00:00","thursday_end":"23:00:00","friday_start":"08:00:00","friday_end":"23:00:00","saturday_start":"08:00:00","saturday_end":"23:00:00","sunday_start":"08:00:00","sunday_end":"23:00:00","user_id":null,"map":null,"is_holiday":"N","holiday_start_date":null,"holiday_end_date":null,"holiday_start_time":null,"holiday_end_time":null,"zone_id":"8","ad_link":"https:\/\/www.qgdigitalpublishing.com\/publication?m=40535&l=1","is_ncr":"1","region_id":null,"message":""}, {"id":"32","mall_id":"0","name":"Fresno - Tulare","mall_no":"33","address":"3190 East Tulare Street","city":"Fresno","state":"CA","country_id":"0","zip":"93702","phone_no":"(559) 367-0285","latitude":"36.742262","longitude":"-119.770899","banner_path":null,"isdeleted":"N","isblocked":"N","timezone":"PDT","monday_start":"08:00:00","monday_end":"23:00:00","tuesday_start":"08:00:00","tuesday_end":"23:00:00","wednesday_start":"08:00:00","wednesday_end":"23:00:00","thursday_start":"08:00:00","thursday_end":"23:00:00","friday_start":"08:00:00","friday_end":"23:00:00","saturday_start":"08:00:00","saturday_end":"23:00:00","sunday_start":"08:00:00","sunday_end":"23:00:00","user_id":null,"map":null,"is_holiday":"N","holiday_start_date":null,"holiday_end_date":null,"holiday_start_time":null,"holiday_end_time":null,"zone_id":"9","ad_link":"https:\/\/www.qgdigitalpublishing.com\/publication?m=40539&l=1","is_ncr":"1","region_id":null,"message":""}, {"id":"33","mall_id":"0","name":"Moreno  Valley","mall_no":"34","address":"24899 Alessandro Blvd","city":"Moreno Valley","state":"CA","country_id":"0","zip":"92553","phone_no":"(951) 601-3576","latitude":"33.915999","longitude":"-117.227632","banner_path":null,"isdeleted":"N","isblocked":"N","timezone":"PDT","monday_start":"08:00:00","monday_end":"23:00:00","tuesday_start":"08:00:00","tuesday_end":"23:00:00","wednesday_start":"08:00:00","wednesday_end":"23:00:00","thursday_start":"08:00:00","thursday_end":"23:00:00","friday_start":"08:00:00","friday_end":"23:00:00","saturday_start":"08:00:00","saturday_end":"23:00:00","sunday_start":"08:00:00","sunday_end":"23:00:00","user_id":null,"map":null,"is_holiday":"N","holiday_start_date":null,"holiday_end_date":null,"holiday_start_time":null,"holiday_end_time":null,"zone_id":"10","ad_link":"https:\/\/www.qgdigitalpublishing.com\/publication?m=40535&l=1","is_ncr":"1","region_id":null,"message":""}, {"id":"34","mall_id":"0","name":"Rialto","mall_no":"35","address":"515 S. Riverside Ave","city":"Rialto","state":"CA","country_id":"0","zip":"92376","phone_no":"(909) 874-4481","latitude":"34.091675","longitude":"-117.36867","banner_path":null,"isdeleted":"N","isblocked":"N","timezone":"PDT","monday_start":"08:00:00","monday_end":"23:00:00","tuesday_start":"08:00:00","tuesday_end":"23:00:00","wednesday_start":"08:00:00","wednesday_end":"23:00:00","thursday_start":"08:00:00","thursday_end":"23:00:00","friday_start":"08:00:00","friday_end":"23:00:00","saturday_start":"08:00:00","saturday_end":"23:00:00","sunday_start":"08:00:00","sunday_end":"23:00:00","user_id":null,"map":null,"is_holiday":"N","holiday_start_date":null,"holiday_end_date":null,"holiday_start_time":null,"holiday_end_time":null,"zone_id":"8","ad_link":"https:\/\/www.qgdigitalpublishing.com\/publication?m=40535&l=1","is_ncr":"1","region_id":null,"message":""}, {"id":"35","mall_id":"0","name":"Salinas","mall_no":"36","address":"640 E. Boronda Rd.","city":"Salinas","state":"CA","country_id":"0","zip":"93906","phone_no":"(831) 444-7894","latitude":"36.71461","longitude":"-121.625627","banner_path":null,"isdeleted":"N","isblocked":"N","timezone":"PDT","monday_start":"08:00:00","monday_end":"23:00:00","tuesday_start":"08:00:00","tuesday_end":"23:00:00","wednesday_start":"08:00:00","wednesday_end":"23:00:00","thursday_start":"08:00:00","thursday_end":"23:00:00","friday_start":"08:00:00","friday_end":"23:00:00","saturday_start":"08:00:00","saturday_end":"23:00:00","sunday_start":"08:00:00","sunday_end":"23:00:00","user_id":null,"map":null,"is_holiday":"N","holiday_start_date":null,"holiday_end_date":null,"holiday_start_time":null,"holiday_end_time":null,"zone_id":"11","ad_link":"https:\/\/www.qgdigitalpublishing.com\/publication?m=40539&l=1","is_ncr":"1","region_id":null,"message":""}, {"id":"36","mall_id":"0","name":"San Bernardino - 9th","mall_no":"37","address":"263 East 9th Street","city":"San Bernardino","state":"CA","country_id":"0","zip":"92401","phone_no":"(909) 266-5191","latitude":"34.114676","longitude":"-117.279685","banner_path":null,"isdeleted":"N","isblocked":"N","timezone":"PDT","monday_start":"08:00:00","monday_end":"23:00:00","tuesday_start":"08:00:00","tuesday_end":"23:00:00","wednesday_start":"08:00:00","wednesday_end":"23:00:00","thursday_start":"08:00:00","thursday_end":"23:00:00","friday_start":"08:00:00","friday_end":"23:00:00","saturday_start":"08:00:00","saturday_end":"23:00:00","sunday_start":"08:00:00","sunday_end":"23:00:00","user_id":null,"map":null,"is_holiday":"N","holiday_start_date":null,"holiday_end_date":null,"holiday_start_time":null,"holiday_end_time":null,"zone_id":"8","ad_link":"https:\/\/www.qgdigitalpublishing.com\/publication?m=40535&l=1","is_ncr":"1","region_id":null,"message":""}, {"id":"37","mall_id":"0","name":"San Bernardino - Baseline","mall_no":"38","address":"1578 West Base line Str.","city":"San Bernardino","state":"CA","country_id":"0","zip":"92411","phone_no":"(909) 884-6771","latitude":"34.122734","longitude":"-117.321544","banner_path":null,"isdeleted":"N","isblocked":"N","timezone":"PDT","monday_start":"08:00:00","monday_end":"23:00:00","tuesday_start":"08:00:00","tuesday_end":"23:00:00","wednesday_start":"08:00:00","wednesday_end":"23:00:00","thursday_start":"08:00:00","thursday_end":"23:00:00","friday_start":"08:00:00","friday_end":"23:00:00","saturday_start":"08:00:00","saturday_end":"23:00:00","sunday_start":"08:00:00","sunday_end":"23:00:00","user_id":null,"map":null,"is_holiday":"N","holiday_start_date":null,"holiday_end_date":null,"holiday_start_time":null,"holiday_end_time":null,"zone_id":"8","ad_link":"https:\/\/www.qgdigitalpublishing.com\/publication?m=40535&l=1","is_ncr":"1","region_id":null,"message":""}, {"id":"38","mall_id":"0","name":"San Bernardino - Mt. Vernon","mall_no":"39","address":"570 S. Mount Vernon","city":"San Bernardino","state":"CA","country_id":"0","zip":"92410","phone_no":"(909) 888-8867","latitude":"34.090767","longitude":"-117.314991","banner_path":null,"isdeleted":"N","isblocked":"N","timezone":"PDT","monday_start":"08:00:00","monday_end":"23:00:00","tuesday_start":"08:00:00","tuesday_end":"23:00:00","wednesday_start":"08:00:00","wednesday_end":"23:00:00","thursday_start":"08:00:00","thursday_end":"23:00:00","friday_start":"08:00:00","friday_end":"23:00:00","saturday_start":"08:00:00","saturday_end":"23:00:00","sunday_start":"08:00:00","sunday_end":"23:00:00","user_id":null,"map":null,"is_holiday":"N","holiday_start_date":null,"holiday_end_date":null,"holiday_start_time":null,"holiday_end_time":null,"zone_id":"8","ad_link":"https:\/\/www.qgdigitalpublishing.com\/publication?m=40535&l=1","is_ncr":"1","region_id":null,"message":""}, {"id":"39","mall_id":"0","name":"Baldwin Park","mall_no":"41","address":"14103 Ramona Boulevard","city":"Baldwin Park","state":"CA","country_id":"0","zip":"91706","phone_no":"(626)869-5141","latitude":"34.086413","longitude":"-117.966449","banner_path":null,"isdeleted":"N","isblocked":"N","timezone":"PDT","monday_start":"08:00:00","monday_end":"23:00:00","tuesday_start":"08:00:00","tuesday_end":"23:00:00","wednesday_start":"08:00:00","wednesday_end":"23:00:00","thursday_start":"08:00:00","thursday_end":"23:00:00","friday_start":"08:00:00","friday_end":"23:00:00","saturday_start":"08:00:00","saturday_end":"23:00:00","sunday_start":"08:00:00","sunday_end":"23:00:00","user_id":null,"map":null,"is_holiday":"N","holiday_start_date":null,"holiday_end_date":null,"holiday_start_time":null,"holiday_end_time":null,"zone_id":"2","ad_link":"https:\/\/www.qgdigitalpublishing.com\/publication?m=40535&l=1","is_ncr":"1","region_id":null,"message":""}, {"id":"40","mall_id":"0","name":"Garden Grove","mall_no":"42","address":"12891 Harbor Boulevard","city":"Garden Grove","state":"CA","country_id":"0","zip":"92840","phone_no":"(714) 867-1942","latitude":"33.777466","longitude":"-117.918209","banner_path":null,"isdeleted":"N","isblocked":"N","timezone":"PDT","monday_start":"08:00:00","monday_end":"23:00:00","tuesday_start":"08:00:00","tuesday_end":"23:00:00","wednesday_start":"08:00:00","wednesday_end":"23:00:00","thursday_start":"08:00:00","thursday_end":"23:00:00","friday_start":"08:00:00","friday_end":"23:00:00","saturday_start":"08:00:00","saturday_end":"23:00:00","sunday_start":"08:00:00","sunday_end":"23:00:00","user_id":null,"map":null,"is_holiday":"N","holiday_start_date":null,"holiday_end_date":null,"holiday_start_time":null,"holiday_end_time":null,"zone_id":"3","ad_link":"https:\/\/www.qgdigitalpublishing.com\/publication?m=40535&l=1","is_ncr":"1","region_id":null,"message":""}, {"id":"41","mall_id":"0","name":"Lawndale","mall_no":"43","address":"15202 Hawthorne Boulevard","city":"Lawndale","state":"CA","country_id":"0","zip":"90260","phone_no":"(310) 848-1930","latitude":"33.893414","longitude":"-118.351926","banner_path":null,"isdeleted":"N","isblocked":"N","timezone":"PDT","monday_start":"08:00:00","monday_end":"23:00:00","tuesday_start":"08:00:00","tuesday_end":"23:00:00","wednesday_start":"08:00:00","wednesday_end":"23:00:00","thursday_start":"08:00:00","thursday_end":"23:00:00","friday_start":"08:00:00","friday_end":"23:00:00","saturday_start":"08:00:00","saturday_end":"23:00:00","sunday_start":"08:00:00","sunday_end":"23:00:00","user_id":null,"map":null,"is_holiday":"N","holiday_start_date":null,"holiday_end_date":null,"holiday_start_time":null,"holiday_end_time":null,"zone_id":"2","ad_link":"https:\/\/www.qgdigitalpublishing.com\/publication?m=40534&l=1","is_ncr":"1","region_id":null,"message":""}, {"id":"42","mall_id":"0","name":"Lynnwood","mall_no":"44","address":"10721 Atlantic Avenue","city":"Lynwood","state":"CA","country_id":"0","zip":"90262","phone_no":"(310) 438-4660","latitude":"33.933128","longitude":"-118.183063","banner_path":null,"isdeleted":"N","isblocked":"N","timezone":"PDT","monday_start":"08:00:00","monday_end":"23:00:00","tuesday_start":"08:00:00","tuesday_end":"23:00:00","wednesday_start":"08:00:00","wednesday_end":"23:00:00","thursday_start":"08:00:00","thursday_end":"23:00:00","friday_start":"08:00:00","friday_end":"23:00:00","saturday_start":"08:00:00","saturday_end":"23:00:00","sunday_start":"08:00:00","sunday_end":"23:00:00","user_id":null,"map":null,"is_holiday":"N","holiday_start_date":null,"holiday_end_date":null,"holiday_start_time":null,"holiday_end_time":null,"zone_id":"2","ad_link":"https:\/\/www.qgdigitalpublishing.com\/publication?m=40535&l=1","is_ncr":"1","region_id":null,"message":""}, {"id":"43","mall_id":"0","name":"Oceanside","mall_no":"45","address":"1527 Mission Avenue","city":"Oceanside","state":"CA","country_id":"0","zip":"92057","phone_no":"(760) 681-5130","latitude":"33.200667","longitude":"-117.36716","banner_path":null,"isdeleted":"N","isblocked":"N","timezone":"PDT","monday_start":"08:00:00","monday_end":"23:00:00","tuesday_start":"08:00:00","tuesday_end":"23:00:00","wednesday_start":"08:00:00","wednesday_end":"23:00:00","thursday_start":"08:00:00","thursday_end":"23:00:00","friday_start":"08:00:00","friday_end":"23:00:00","saturday_start":"08:00:00","saturday_end":"23:00:00","sunday_start":"08:00:00","sunday_end":"23:00:00","user_id":null,"map":null,"is_holiday":"N","holiday_start_date":null,"holiday_end_date":null,"holiday_start_time":null,"holiday_end_time":null,"zone_id":"7","ad_link":"https:\/\/www.qgdigitalpublishing.com\/publication?m=40543&l=1","is_ncr":"1","region_id":null,"message":""}, {"id":"44","mall_id":"0","name":"Oxnard","mall_no":"46","address":"2800 Saviers Road","city":"Oxnard","state":"CA","country_id":"0","zip":"93033","phone_no":"(805) 205-2288","latitude":"34.174138","longitude":"-119.176702","banner_path":null,"isdeleted":"N","isblocked":"N","timezone":"PDT","monday_start":"08:00:00","monday_end":"23:00:00","tuesday_start":"08:00:00","tuesday_end":"23:00:00","wednesday_start":"08:00:00","wednesday_end":"23:00:00","thursday_start":"08:00:00","thursday_end":"23:00:00","friday_start":"08:00:00","friday_end":"23:00:00","saturday_start":"08:00:00","saturday_end":"23:00:00","sunday_start":"08:00:00","sunday_end":"23:00:00","user_id":null,"map":null,"is_holiday":"N","holiday_start_date":null,"holiday_end_date":null,"holiday_start_time":null,"holiday_end_time":null,"zone_id":"12","ad_link":"https:\/\/www.qgdigitalpublishing.com\/publication?m=40534&l=1","is_ncr":"1","region_id":null,"message":""}, {"id":"45","mall_id":"0","name":"San Fernando","mall_no":"47","address":"315 San Fernando Mission Road","city":"San Fernando","state":"CA","country_id":"0","zip":"91340","phone_no":"(818) 336-5081","latitude":"34.284406","longitude":"-118.444696","banner_path":null,"isdeleted":"N","isblocked":"N","timezone":"PDT","monday_start":"08:00:00","monday_end":"23:00:00","tuesday_start":"08:00:00","tuesday_end":"23:00:00","wednesday_start":"08:00:00","wednesday_end":"23:00:00","thursday_start":"08:00:00","thursday_end":"23:00:00","friday_start":"08:00:00","friday_end":"23:00:00","saturday_start":"08:00:00","saturday_end":"23:00:00","sunday_start":"08:00:00","sunday_end":"23:00:00","user_id":null,"map":null,"is_holiday":"N","holiday_start_date":null,"holiday_end_date":null,"holiday_start_time":null,"holiday_end_time":null,"zone_id":"2","ad_link":"https:\/\/www.qgdigitalpublishing.com\/publication?m=40535&l=1","is_ncr":"1","region_id":null,"message":""}, {"id":"46","mall_id":"0","name":"Wilmington","mall_no":"48","address":"120 W. Anaheim Street","city":"Wilmington","state":"CA","country_id":"0","zip":"90744","phone_no":"(310) 513-4270","latitude":"33.778821","longitude":"-118.263078","banner_path":null,"isdeleted":"N","isblocked":"N","timezone":"PDT","monday_start":"08:00:00","monday_end":"23:00:00","tuesday_start":"08:00:00","tuesday_end":"23:00:00","wednesday_start":"08:00:00","wednesday_end":"23:00:00","thursday_start":"08:00:00","thursday_end":"23:00:00","friday_start":"08:00:00","friday_end":"23:00:00","saturday_start":"08:00:00","saturday_end":"23:00:00","sunday_start":"08:00:00","sunday_end":"23:00:00","user_id":null,"map":null,"is_holiday":"N","holiday_start_date":null,"holiday_end_date":null,"holiday_start_time":null,"holiday_end_time":null,"zone_id":"2","ad_link":"https:\/\/www.qgdigitalpublishing.com\/publication?m=40535&l=1","is_ncr":"1","region_id":null,"message":""}, {"id":"47","mall_id":"0","name":"Long Beach","mall_no":"49","address":"450 Long Beach Blvd.","city":"Long Beach","state":"CA","country_id":"0","zip":"90802","phone_no":"(562) 257-1574","latitude":"33.772299","longitude":"-118.188479","banner_path":null,"isdeleted":"N","isblocked":"N","timezone":"PDT","monday_start":"08:00:00","monday_end":"23:00:00","tuesday_start":"08:00:00","tuesday_end":"23:00:00","wednesday_start":"08:00:00","wednesday_end":"23:00:00","thursday_start":"08:00:00","thursday_end":"23:00:00","friday_start":"08:00:00","friday_end":"23:00:00","saturday_start":"08:00:00","saturday_end":"23:00:00","sunday_start":"08:00:00","sunday_end":"23:00:00","user_id":null,"map":null,"is_holiday":"N","holiday_start_date":null,"holiday_end_date":null,"holiday_start_time":null,"holiday_end_time":null,"zone_id":"2","ad_link":"https:\/\/www.qgdigitalpublishing.com\/publication?m=40535&l=1","is_ncr":"1","region_id":null,"message":""}, {"id":"48","mall_id":"0","name":"Ontario","mall_no":"50","address":"1000 N. Mountain Rd","city":"Ontario","state":"CA","country_id":"0","zip":"91762","phone_no":"(909) 456-8423","latitude":"34.076438","longitude":"-117.668611","banner_path":null,"isdeleted":"N","isblocked":"N","timezone":"PDT","monday_start":"08:00:00","monday_end":"23:00:00","tuesday_start":"08:00:00","tuesday_end":"23:00:00","wednesday_start":"08:00:00","wednesday_end":"23:00:00","thursday_start":"08:00:00","thursday_end":"23:00:00","friday_start":"08:00:00","friday_end":"23:00:00","saturday_start":"08:00:00","saturday_end":"23:00:00","sunday_start":"08:00:00","sunday_end":"23:00:00","user_id":null,"map":null,"is_holiday":"N","holiday_start_date":null,"holiday_end_date":null,"holiday_start_time":null,"holiday_end_time":null,"zone_id":"8","ad_link":"https:\/\/www.qgdigitalpublishing.com\/publication?m=40535&l=1","is_ncr":"1","region_id":null,"message":""}, {"id":"49","mall_id":"0","name":"San Diego","mall_no":"51","address":"4421 University Ave","city":"San Diego","state":"CA","country_id":"0","zip":"92105","phone_no":"(619) 400-2150","latitude":"32.748594","longitude":"-117.099256","banner_path":null,"isdeleted":"N","isblocked":"N","timezone":"PDT","monday_start":"08:00:00","monday_end":"23:00:00","tuesday_start":"08:00:00","tuesday_end":"23:00:00","wednesday_start":"08:00:00","wednesday_end":"23:00:00","thursday_start":"08:00:00","thursday_end":"23:00:00","friday_start":"08:00:00","friday_end":"23:00:00","saturday_start":"08:00:00","saturday_end":"23:00:00","sunday_start":"08:00:00","sunday_end":"23:00:00","user_id":null,"map":null,"is_holiday":"N","holiday_start_date":null,"holiday_end_date":null,"holiday_start_time":null,"holiday_end_time":null,"zone_id":"7","ad_link":"https:\/\/www.qgdigitalpublishing.com\/publication?m=40543&l=1","is_ncr":"1","region_id":null,"message":""}, {"id":"50","mall_id":"0","name":"Las Vegas Sahara","mall_no":"52","address":"4610 West Sahara Avenue","city":"Las Vegas","state":"NV","country_id":"0","zip":"89102","phone_no":"(702) 405-2701","latitude":"36.146441","longitude":"-115.205996","banner_path":null,"isdeleted":"N","isblocked":"N","timezone":"PDT","monday_start":"08:00:00","monday_end":"23:00:00","tuesday_start":"08:00:00","tuesday_end":"23:00:00","wednesday_start":"08:00:00","wednesday_end":"23:00:00","thursday_start":"08:00:00","thursday_end":"23:00:00","friday_start":"08:00:00","friday_end":"23:00:00","saturday_start":"08:00:00","saturday_end":"23:00:00","sunday_start":"08:00:00","sunday_end":"23:00:00","user_id":null,"map":null,"is_holiday":"N","holiday_start_date":null,"holiday_end_date":null,"holiday_start_time":null,"holiday_end_time":null,"zone_id":"6","ad_link":"https:\/\/www.qgdigitalpublishing.com\/publication?m=40540&l=1","is_ncr":"1","region_id":null,"message":""}, {"id":"51","mall_id":"0","name":"Mesa","mall_no":"53","address":"1251  E. Southern Avenue","city":"Mesa","state":"AZ","country_id":"236","zip":"85204","phone_no":"(480) 868-2484","latitude":"33.392198","longitude":"-111.803811","banner_path":null,"isdeleted":"N","isblocked":"N","timezone":"MST","monday_start":"07:00:00","monday_end":"23:00:00","tuesday_start":"07:00:00","tuesday_end":"23:00:00","wednesday_start":"07:00:00","wednesday_end":"23:00:00","thursday_start":"07:00:00","thursday_end":"23:00:00","friday_start":"07:00:00","friday_end":"23:00:00","saturday_start":"07:00:00","saturday_end":"23:00:00","sunday_start":"07:00:00","sunday_end":"23:00:00","user_id":null,"map":null,"is_holiday":"N","holiday_start_date":null,"holiday_end_date":null,"holiday_start_time":null,"holiday_end_time":null,"zone_id":"13","ad_link":"https:\/\/www.qgdigitalpublishing.com\/publication?m=40533&l=1","is_ncr":"1","region_id":null,"message":""}, {"id":"52","mall_id":"0","name":"Pico Rivera","mall_no":"54","address":"9320 Slauson Avenue","city":"Pico Rivera","state":"CA","country_id":"0","zip":"90660","phone_no":"(562) 205-1408","latitude":"33.968247","longitude":"-118.097889","banner_path":null,"isdeleted":"N","isblocked":"N","timezone":"PDT","monday_start":"08:00:00","monday_end":"23:00:00","tuesday_start":"08:00:00","tuesday_end":"23:00:00","wednesday_start":"08:00:00","wednesday_end":"23:00:00","thursday_start":"08:00:00","thursday_end":"23:00:00","friday_start":"08:00:00","friday_end":"23:00:00","saturday_start":"08:00:00","saturday_end":"23:00:00","sunday_start":"08:00:00","sunday_end":"23:00:00","user_id":null,"map":null,"is_holiday":"N","holiday_start_date":null,"holiday_end_date":null,"holiday_start_time":null,"holiday_end_time":null,"zone_id":"2","ad_link":"https:\/\/www.qgdigitalpublishing.com\/publication?m=40535&l=1","is_ncr":"1","region_id":null,"message":""}, {"id":"53","mall_id":"0","name":"Camelback","mall_no":"55","address":"2211 W. Camelback RD","city":"Phoenix","state":"AZ","country_id":"236","zip":"85015","phone_no":"(480) 562-5007","latitude":"33.508487","longitude":"-112.106993","banner_path":null,"isdeleted":"N","isblocked":"N","timezone":"MST","monday_start":"07:00:00","monday_end":"23:00:00","tuesday_start":"07:00:00","tuesday_end":"23:00:00","wednesday_start":"07:00:00","wednesday_end":"23:00:00","thursday_start":"07:00:00","thursday_end":"23:00:00","friday_start":"07:00:00","friday_end":"23:00:00","saturday_start":"07:00:00","saturday_end":"23:00:00","sunday_start":"07:00:00","sunday_end":"23:00:00","user_id":null,"map":null,"is_holiday":"N","holiday_start_date":null,"holiday_end_date":null,"holiday_start_time":null,"holiday_end_time":null,"zone_id":"13","ad_link":"https:\/\/www.qgdigitalpublishing.com\/publication?m=40533&l=1","is_ncr":"1","region_id":null,"message":""}, {"id":"54","mall_id":"0","name":"Corona","mall_no":"56","address":"1212 Magnolia Avenue","city":"Corona","state":"CA","country_id":"0","zip":"92881","phone_no":"(951) 356-8842","latitude":"33.863062","longitude":"-117.542494","banner_path":null,"isdeleted":"N","isblocked":"N","timezone":"PDT","monday_start":"08:00:00","monday_end":"23:00:00","tuesday_start":"08:00:00","tuesday_end":"23:00:00","wednesday_start":"08:00:00","wednesday_end":"23:00:00","thursday_start":"08:00:00","thursday_end":"23:00:00","friday_start":"08:00:00","friday_end":"23:00:00","saturday_start":"08:00:00","saturday_end":"23:00:00","sunday_start":"08:00:00","sunday_end":"23:00:00","user_id":null,"map":null,"is_holiday":"N","holiday_start_date":null,"holiday_end_date":null,"holiday_start_time":null,"holiday_end_time":null,"zone_id":"10","ad_link":"https:\/\/www.qgdigitalpublishing.com\/publication?m=40535&l=1","is_ncr":"1","region_id":null,"message":""}, {"id":"55","mall_id":"0","name":"Riverside","mall_no":"57","address":"5800 Van Buren Blvd.","city":"Riverside","state":"CA","country_id":"0","zip":"92503","phone_no":"(951) 710-1575","latitude":"33.942084","longitude":"-117.455235","banner_path":null,"isdeleted":"N","isblocked":"N","timezone":"PDT","monday_start":"08:00:00","monday_end":"23:00:00","tuesday_start":"08:00:00","tuesday_end":"23:00:00","wednesday_start":"08:00:00","wednesday_end":"23:00:00","thursday_start":"08:00:00","thursday_end":"23:00:00","friday_start":"08:00:00","friday_end":"23:00:00","saturday_start":"08:00:00","saturday_end":"23:00:00","sunday_start":"08:00:00","sunday_end":"23:00:00","user_id":null,"map":null,"is_holiday":"N","holiday_start_date":null,"holiday_end_date":null,"holiday_start_time":null,"holiday_end_time":null,"zone_id":"10","ad_link":"https:\/\/www.qgdigitalpublishing.com\/publication?m=40535&l=1","is_ncr":"1","region_id":null,"message":""}, {"id":"56","mall_id":"0","name":"Los Angeles","mall_no":"58","address":"310 E. Florence Avenue","city":"Los Angeles","state":"CA","country_id":"0","zip":"90003","phone_no":"(323)905-1928","latitude":"33.974435","longitude":"-118.2683","banner_path":null,"isdeleted":"N","isblocked":"N","timezone":"PDT","monday_start":"08:00:00","monday_end":"23:00:00","tuesday_start":"08:00:00","tuesday_end":"23:00:00","wednesday_start":"08:00:00","wednesday_end":"23:00:00","thursday_start":"08:00:00","thursday_end":"23:00:00","friday_start":"08:00:00","friday_end":"23:00:00","saturday_start":"08:00:00","saturday_end":"23:00:00","sunday_start":"08:00:00","sunday_end":"23:00:00","user_id":null,"map":null,"is_holiday":"N","holiday_start_date":null,"holiday_end_date":null,"holiday_start_time":null,"holiday_end_time":null,"zone_id":"2","ad_link":"https:\/\/www.qgdigitalpublishing.com\/publication?m=40535&l=1","is_ncr":"1","region_id":null,"message":""}, {"id":"57","mall_id":"0","name":"Albuquerque","mall_no":"60","address":"4201 Central Ave. NW","city":"Albuquerque","state":"NM","country_id":"0","zip":"87105","phone_no":"(505) 544-2919","latitude":"35.086732","longitude":"-106.687687","banner_path":null,"isdeleted":"N","isblocked":"N","timezone":"MDT","monday_start":"08:00:00","monday_end":"23:00:00","tuesday_start":"08:00:00","tuesday_end":"23:00:00","wednesday_start":"08:00:00","wednesday_end":"23:00:00","thursday_start":"08:00:00","thursday_end":"23:00:00","friday_start":"08:00:00","friday_end":"23:00:00","saturday_start":"08:00:00","saturday_end":"23:00:00","sunday_start":"08:00:00","sunday_end":"23:00:00","user_id":null,"map":null,"is_holiday":"N","holiday_start_date":null,"holiday_end_date":null,"holiday_start_time":null,"holiday_end_time":null,"zone_id":"14","ad_link":"https:\/\/www.qgdigitalpublishing.com\/publication?m=40538&l=1","is_ncr":"1","region_id":null,"message":""}, {"id":"58","mall_id":"0","name":"Zaragoza","mall_no":"61","address":"703 N. Zaragoza Rd.","city":"El Paso","state":"TX","country_id":"0","zip":"79907","phone_no":"(915) 242-0686","latitude":"31.705679","longitude":"-106.320148","banner_path":null,"isdeleted":"N","isblocked":"N","timezone":"MDT","monday_start":"08:00:00","monday_end":"23:00:00","tuesday_start":"08:00:00","tuesday_end":"23:00:00","wednesday_start":"08:00:00","wednesday_end":"23:00:00","thursday_start":"08:00:00","thursday_end":"23:00:00","friday_start":"08:00:00","friday_end":"23:00:00","saturday_start":"08:00:00","saturday_end":"23:00:00","sunday_start":"08:00:00","sunday_end":"23:00:00","user_id":null,"map":null,"is_holiday":"N","holiday_start_date":null,"holiday_end_date":null,"holiday_start_time":null,"holiday_end_time":null,"zone_id":"15","ad_link":"https:\/\/www.qgdigitalpublishing.com\/publication?m=40195&l=1","is_ncr":"1","region_id":null,"message":""}, {"id":"59","mall_id":"0","name":"Gateway","mall_no":"62","address":"10501 Gateway Blvd. West Suite 600","city":"El Paso","state":"TX","country_id":"0","zip":"79925","phone_no":"(915) 591-0418","latitude":"31.755339","longitude":"-106.346412","banner_path":null,"isdeleted":"N","isblocked":"N","timezone":"MDT","monday_start":"08:00:00","monday_end":"23:00:00","tuesday_start":"08:00:00","tuesday_end":"23:00:00","wednesday_start":"08:00:00","wednesday_end":"23:00:00","thursday_start":"08:00:00","thursday_end":"23:00:00","friday_start":"08:00:00","friday_end":"23:00:00","saturday_start":"08:00:00","saturday_end":"23:00:00","sunday_start":"08:00:00","sunday_end":"23:00:00","user_id":null,"map":null,"is_holiday":"N","holiday_start_date":null,"holiday_end_date":null,"holiday_start_time":null,"holiday_end_time":null,"zone_id":"15","ad_link":"https:\/\/www.qgdigitalpublishing.com\/publication?m=40195&l=1","is_ncr":"1","region_id":null,"message":""}, {"id":"60","mall_id":"0","name":"Ashburn","mall_no":null,"address":"Ashburn","city":"Ashburn","state":"VA","country_id":"102","zip":"20148","phone_no":"5646456","latitude":"38.969586","longitude":"-77.528298","banner_path":null,"isdeleted":"N","isblocked":"N","timezone":"","monday_start":"07:00:00","monday_end":"23:00:00","tuesday_start":"07:00:00","tuesday_end":"23:00:00","wednesday_start":"07:00:00","wednesday_end":"23:00:00","thursday_start":"07:00:00","thursday_end":"23:00:00","friday_start":"07:00:00","friday_end":"23:00:00","saturday_start":"07:00:00","saturday_end":"23:00:00","sunday_start":"07:00:00","sunday_end":"23:00:00","user_id":null,"map":null,"is_holiday":"N","holiday_start_date":null,"holiday_end_date":null,"holiday_start_time":null,"holiday_end_time":null,"zone_id":null,"ad_link":"","is_ncr":"1","region_id":null,"message":"<h2 style=\"font-style:italic;\"><strong>Test notification !!!!<\/strong><\/h2>\r\n"}, {"id":"61","mall_id":"0","name":"Howrah","mall_no":null,"address":"Howrah","city":"Howrah","state":"WB","country_id":"102","zip":"700001","phone_no":"66663","latitude":"22.69263","longitude":"87.852119","banner_path":null,"isdeleted":"N","isblocked":"N","timezone":"","monday_start":"07:00:00","monday_end":"23:00:00","tuesday_start":"07:00:00","tuesday_end":"23:00:00","wednesday_start":"07:00:00","wednesday_end":"23:00:00","thursday_start":"07:00:00","thursday_end":"23:00:00","friday_start":"07:00:00","friday_end":"23:00:00","saturday_start":"07:00:00","saturday_end":"23:00:00","sunday_start":"07:00:00","sunday_end":"23:00:00","user_id":null,"map":null,"is_holiday":"N","holiday_start_date":null,"holiday_end_date":null,"holiday_start_time":null,"holiday_end_time":null,"zone_id":null,"ad_link":"","is_ncr":"1","region_id":null,"message":null}, {"id":"62","mall_id":"0","name":"El Super Fresh \u2013 Vermont","mall_no":"501","address":"7220 South Vermont Ave.","city":"Los Angeles","state":"CA","country_id":"0","zip":"90044","phone_no":"(323)905-1901","latitude":"33.973919","longitude":"-118.291435","banner_path":null,"isdeleted":"N","isblocked":"N","timezone":"PDT","monday_start":"08:00:00","monday_end":"22:00:00","tuesday_start":"08:00:00","tuesday_end":"22:00:00","wednesday_start":"08:00:00","wednesday_end":"22:00:00","thursday_start":"08:00:00","thursday_end":"22:00:00","friday_start":"08:00:00","friday_end":"22:00:00","saturday_start":"08:00:00","saturday_end":"22:00:00","sunday_start":"08:00:00","sunday_end":"22:00:00","user_id":null,"map":null,"is_holiday":"N","holiday_start_date":null,"holiday_end_date":null,"holiday_start_time":null,"holiday_end_time":null,"zone_id":"2","ad_link":"https:\/\/www.qgdigitalpublishing.com\/publication\/?m=55479&l=1","is_ncr":"1","region_id":null,"message":""}, {"id":"63","mall_id":"0","name":"El Super Fresh \u2013 Hooper","mall_no":"500","address":"8601 Hooper Ave.","city":"Los Angeles","state":"CA","country_id":"0","zip":"90002","phone_no":"323-923-2361","latitude":"33.9598784999999","longitude":"-118.2546962","banner_path":null,"isdeleted":"N","isblocked":"N","timezone":"PDT","monday_start":"08:00:00","monday_end":"22:00:00","tuesday_start":"08:00:00","tuesday_end":"22:00:00","wednesday_start":"08:00:00","wednesday_end":"22:00:00","thursday_start":"08:00:00","thursday_end":"22:00:00","friday_start":"08:00:00","friday_end":"22:00:00","saturday_start":"08:00:00","saturday_end":"22:00:00","sunday_start":"08:00:00","sunday_end":"22:00:00","user_id":null,"map":null,"is_holiday":"N","holiday_start_date":null,"holiday_end_date":null,"holiday_start_time":null,"holiday_end_time":null,"zone_id":"2","ad_link":"https:\/\/www.qgdigitalpublishing.com\/publication\/?m=55479&l=1","is_ncr":"1","region_id":null,"message":""}, {"id":"64","mall_id":"0","name":"El Super Fresh \u2013 La Brea","mall_no":"502","address":"1035 South La Brea Ave.","city":"Inglewood","state":"CA","country_id":"0","zip":"90301","phone_no":"323-981-4300","latitude":"33.950202","longitude":"-118.3530382","banner_path":null,"isdeleted":"N","isblocked":"N","timezone":"PDT","monday_start":"08:00:00","monday_end":"22:00:00","tuesday_start":"08:00:00","tuesday_end":"22:00:00","wednesday_start":"08:00:00","wednesday_end":"22:00:00","thursday_start":"08:00:00","thursday_end":"22:00:00","friday_start":"08:00:00","friday_end":"22:00:00","saturday_start":"08:00:00","saturday_end":"22:00:00","sunday_start":"08:00:00","sunday_end":"22:00:00","user_id":null,"map":null,"is_holiday":"N","holiday_start_date":null,"holiday_end_date":null,"holiday_start_time":null,"holiday_end_time":null,"zone_id":"2","ad_link":"","is_ncr":"1","region_id":null,"message":""}, {"id":"65","mall_id":"0","name":"Escondido","mall_no":"29","address":"151 W. Lincoln Ave","city":"Escondido","state":"CA","country_id":"0","zip":"92026","phone_no":"(760) 466-3960","latitude":"33.1333113","longitude":"-117.0882156","banner_path":null,"isdeleted":"N","isblocked":"N","timezone":"PDT","monday_start":"08:00:00","monday_end":"23:00:00","tuesday_start":"08:00:00","tuesday_end":"23:00:00","wednesday_start":"08:00:00","wednesday_end":"23:00:00","thursday_start":"08:00:00","thursday_end":"23:00:00","friday_start":"08:00:00","friday_end":"23:00:00","saturday_start":"08:00:00","saturday_end":"23:00:00","sunday_start":"08:00:00","sunday_end":"23:00:00","user_id":null,"map":null,"is_holiday":"N","holiday_start_date":null,"holiday_end_date":null,"holiday_start_time":null,"holiday_end_time":null,"zone_id":"16","ad_link":"https:\/\/www.qgdigitalpublishing.com\/publication\/?m=55700&l=1","is_ncr":"1","region_id":null,"message":""}, {"id":"66","mall_id":"0","name":"Indio","mall_no":"63","address":"81619 US Highway 111","city":"Indio","state":"CA","country_id":"236","zip":"92201","phone_no":"(760) 541-4153","latitude":"33.6998672","longitude":"-116.1913667","banner_path":null,"isdeleted":"N","isblocked":"N","timezone":"PDT","monday_start":"08:00:00","monday_end":"23:00:00","tuesday_start":"08:00:00","tuesday_end":"23:00:00","wednesday_start":"08:00:00","wednesday_end":"23:00:00","thursday_start":"08:00:00","thursday_end":"23:00:00","friday_start":"08:00:00","friday_end":"23:00:00","saturday_start":"08:00:00","saturday_end":"23:00:00","sunday_start":"08:00:00","sunday_end":"23:00:00","user_id":null,"map":null,"is_holiday":"N","holiday_start_date":null,"holiday_end_date":null,"holiday_start_time":null,"holiday_end_time":null,"zone_id":"17","ad_link":"https:\/\/www.qgdigitalpublishing.com\/publication?m=40535&l=1","is_ncr":"1","region_id":null,"message":""}]
